[
  {
		"id": "NBJL60",
		"createTime": null,
		"name": "北京亚奥之星汽车服务有限公司",
		"namePinYin": "Beijing Asian Olympic Star Automobile Service Co., Ltd.",
		"code": "NBJL60",
		"picture": null,
		"city": "",
		"cityName": "",
		"address": "昌平区北七家镇北京北辰亚运村汽车交易市场中心3-1、3-2",
		"telephone": "+86 10 80143000",
		"rating": 0,
		"comments": 0,
		"hasCentralStock": false,
		"hasLocalStock": false,
		"distance": 0,
		"status": null,
		"latitude": "40.09312",
		"longitude": "116.41613"
	},
	{
		"id": "NBJR20",
		"createTime": null,
		"name": "北京百得利之星汽车销售有限公司",
		"namePinYin": "Beijing Betterlife Star Automobile Sales Co., Ltd.",
		"code": "NBJR20",
		"picture": null,
		"city": "",
		"cityName": "",
		"address": "海淀区西四环北路143号",
		"telephone": "+86 10 58739999",
		"rating": 0,
		"comments": 0,
		"hasCentralStock": false,
		"hasLocalStock": false,
		"distance": 0,
		"status": null,
		"latitude": "39.93127",
		"longitude": "116.274055"
	},
	{
		"id": "NBJI30",
		"createTime": null,
		"name": "北京博瑞祥驰汽车销售服务有限公司",
		"namePinYin": "Beijing Boruixiangchi Automobile Sales And Service Co., Ltd.",
		"code": "NBJI30",
		"picture": null,
		"city": "",
		"cityName": "",
		"address": "朝阳区德胜门外双泉堡花虎沟二号",
		"telephone": "+86 10 62924433",
		"rating": 0,
		"comments": 0,
		"hasCentralStock": false,
		"hasLocalStock": false,
		"distance": 0,
		"status": null,
		"latitude": "40.01328",
		"longitude": "116.36679"
	},
	{
		"id": "NBJB40",
		"createTime": null,
		"name": "北京波士畅达汽车销售服务有限公司",
		"namePinYin": "Beijing Boshichangda Auto Sales&Service Co.,Ltd.",
		"code": "NBJB40",
		"picture": null,
		"city": "CN-11",
		"cityName": "北京",
		"address": "北京市房山区昊天大街广阳西路东口西南100米",
		"telephone": "+86 10 80831666",
		"rating": 0,
		"comments": 0,
		"hasCentralStock": false,
		"hasLocalStock": false,
		"distance": 0,
		"status": null,
		"latitude": "39.755",
		"longitude": "116.157"
	},
	{
		"id": "NBJR53",
		"createTime": null,
		"name": "北京波士诚达汽车销售服务有限公司",
		"namePinYin": "Beijing Boshichengda Auto Sales & Service Co., Ltd.",
		"code": "NBJR53",
		"picture": null,
		"city": "",
		"cityName": "",
		"address": "通州区九棵树西路90号",
		"telephone": "+86 10 80889588",
		"rating": 0,
		"comments": 0,
		"hasCentralStock": false,
		"hasLocalStock": false,
		"distance": 0,
		"status": null,
		"latitude": "39.88352",
		"longitude": "116.65109"
	},
	{
		"id": "NBJR40",
		"createTime": null,
		"name": "北京波士瑞达汽车销售服务有限公司",
		"namePinYin": "Beijing Boshiruida Auto Sales & Service Co., Ltd.",
		"code": "NBJR40",
		"picture": null,
		"city": "",
		"cityName": "",
		"address": "北京市朝阳区平房乡平房村姚家园路78号",
		"telephone": "+86 10 85581000",
		"rating": 0,
		"comments": 0,
		"hasCentralStock": false,
		"hasLocalStock": false,
		"distance": 0,
		"status": null,
		"latitude": "39.941",
		"longitude": "116.53091"
	},
	{
		"id": "NBJB60",
		"createTime": null,
		"name": "北京波士顺达汽车销售服务有限公司",
		"namePinYin": "Beijing Boshishungda Auto Sales & Service Co., Ltd.",
		"code": "NBJB60",
		"picture": null,
		"city": "",
		"cityName": "",
		"address": "北京市通州区草寺475号2幢1层01",
		"telephone": "+86 10 80831505",
		"rating": 0,
		"comments": 0,
		"hasCentralStock": false,
		"hasLocalStock": false,
		"distance": 0,
		"status": null,
		"latitude": "39.989",
		"longitude": "116.679"
	},
	{
		"id": "NBJR10",
		"createTime": null,
		"name": "北京波士通达汽车销售服务有限公司",
		"namePinYin": "Beijing Boshitongda Automobile Sales & Services Co., Ltd.",
		"code": "NBJR10",
		"picture": null,
		"city": "",
		"cityName": "",
		"address": "朝阳区兴隆庄甲3号（京通高速高碑店桥东南角）",
		"telephone": "+86 10 85771166",
		"rating": 0,
		"comments": 0,
		"hasCentralStock": false,
		"hasLocalStock": false,
		"distance": 0,
		"status": null,
		"latitude": "39.908688",
		"longitude": "116.53245"
	},
	{
		"id": "NBJS20",
		"createTime": null,
		"name": "北京极光星徽汽车销售服务有限公司",
		"namePinYin": "Beijing Glary Star Center Automobile Sales Service Co Ltd.",
		"code": "NBJS20",
		"picture": null,
		"city": "",
		"cityName": "",
		"address": "北京市朝阳区京顺路四元桥内109号院2",
		"telephone": "+86 10 84747888",
		"rating": 0,
		"comments": 0,
		"hasCentralStock": false,
		"hasLocalStock": false,
		"distance": 0,
		"status": null,
		"latitude": "39.96918",
		"longitude": "116.462326"
	},
	{
		"id": "NBJI10",
		"createTime": null,
		"name": "北京金冠汽车服务有限公司",
		"namePinYin": "Beijing Jinguan Car Service Co., Ltd.",
		"code": "NBJI10",
		"picture": null,
		"city": "",
		"cityName": "",
		"address": "北京市海淀区闵庄路6号",
		"telephone": "+86 10 88890789",
		"rating": 0,
		"comments": 0,
		"hasCentralStock": false,
		"hasLocalStock": false,
		"distance": 0,
		"status": null,
		"latitude": "39.9728",
		"longitude": "116.25743"
	},
	{
		"id": "NBJA10",
		"createTime": null,
		"name": "北京鹏龙大道汽车销售服务有限公司",
		"namePinYin": "Beijing Rocar Dadao Automobile Service&trade Co., Ltd.",
		"code": "NBJA10",
		"picture": null,
		"city": "",
		"cityName": "",
		"address": "丰台区南三环西路85号甲-1",
		"telephone": "+86 10 83990606",
		"rating": 0,
		"comments": 0,
		"hasCentralStock": false,
		"hasLocalStock": false,
		"distance": 0,
		"status": null,
		"latitude": "39.848328",
		"longitude": "116.34053"
	},
	{
		"id": "NBJI73",
		"createTime": null,
		"name": "北京鹏龙海依捷汽车销售服务有限公司",
		"namePinYin": "Beijing Rocar Haiyijie Automobile Sales ＆ Service  Co.Ltd.",
		"code": "NBJI73",
		"picture": null,
		"city": "CN-11",
		"cityName": "北京",
		"address": "北京市海淀区车公庄西路38号",
		"telephone": "+86 400 819 8855",
		"rating": 0,
		"comments": 0,
		"hasCentralStock": false,
		"hasLocalStock": false,
		"distance": 0,
		"status": null,
		"latitude": "39.931",
		"longitude": "116.311"
	},
	{
		"id": "NBJB30",
		"createTime": null,
		"name": "北京鹏龙瑞星汽车销售服务有限公司",
		"namePinYin": "Beijing Rocar Rui Xing Automobile Sales Services Ltd.",
		"code": "NBJB30",
		"picture": null,
		"city": "",
		"cityName": "",
		"address": "北京市朝阳区来广营西路甲9号",
		"telephone": "+86 10 66156666",
		"rating": 0,
		"comments": 0,
		"hasCentralStock": false,
		"hasLocalStock": false,
		"distance": 0,
		"status": null,
		"latitude": "40.02069",
		"longitude": "116.451355"
	},
	{
		"id": "NBJB10",
		"createTime": null,
		"name": "北京鹏龙星徽汽车销售服务有限公司",
		"namePinYin": "Beijing Rocar Star Automobile Sales & Service Co., Ltd.",
		"code": "NBJB10",
		"picture": null,
		"city": "",
		"cityName": "",
		"address": "北京市朝阳区华威里10号楼",
		"telephone": "+86 400 1121666",
		"rating": 0,
		"comments": 0,
		"hasCentralStock": false,
		"hasLocalStock": false,
		"distance": 0,
		"status": null,
		"latitude": "39.87432",
		"longitude": "116.46051"
	},
	{
		"id": "NBJI80",
		"createTime": null,
		"name": "北京运通兴驰汽车销售服务有限公司",
		"namePinYin": "Beijing Yuntongxingchi Automobile Sales Service Co Ltd.",
		"code": "NBJI80",
		"picture": null,
		"city": "",
		"cityName": "",
		"address": "北京市大兴区金时大街7号院4号楼",
		"telephone": "+86 10 69279777",
		"rating": 0,
		"comments": 0,
		"hasCentralStock": false,
		"hasLocalStock": false,
		"distance": 0,
		"status": null,
		"latitude": "39.73305",
		"longitude": "116.43078"
	},
	{
		"id": "NBJI50",
		"createTime": null,
		"name": "北京中升之星汽车销售服务有限公司",
		"namePinYin": "Beijing Zhongsheng Star Automobile Sales Service Co Ltd.",
		"code": "NBJI50",
		"picture": null,
		"city": "",
		"cityName": "",
		"address": "朝阳区王四营马房寺路333号",
		"telephone": "+86 10 87391111",
		"rating": 0,
		"comments": 0,
		"hasCentralStock": false,
		"hasLocalStock": false,
		"distance": 0,
		"status": null,
		"latitude": "39.87003",
		"longitude": "116.53553"
	},
	{
		"id": "NBJLC0",
		"createTime": null,
		"name": "利星行平治（北京）汽车有限公司",
		"namePinYin": "Lei Shing Hong Beijing Star Automobile Co., Ltd.",
		"code": "NBJLC0",
		"picture": null,
		"city": "",
		"cityName": "",
		"address": "北京市朝阳区望京街8号利星行广场A座",
		"telephone": "+86 10 84702226",
		"rating": 0,
		"comments": 0,
		"hasCentralStock": false,
		"hasLocalStock": false,
		"distance": 0,
		"status": null,
		"latitude": "40.023838",
		"longitude": "116.52177"
	},
	{
		"id": "NBJL90",
		"createTime": null,
		"name": "利星行之星（北京）汽车有限公司",
		"namePinYin": "Lei Shing Hong Star &#40;beijing&#41; Automobile Co., Ltd.",
		"code": "NBJL90",
		"picture": null,
		"city": "",
		"cityName": "",
		"address": "通州区中关村科技园区通州园金桥科技产业基地景盛中街12号",
		"telephone": "+86 10 56399001",
		"rating": 0,
		"comments": 0,
		"hasCentralStock": false,
		"hasLocalStock": false,
		"distance": 0,
		"status": null,
		"latitude": "39.73805",
		"longitude": "116.56795"
	},
	{
		"id": "NBJL50",
		"createTime": null,
		"name": "利星行（北京）汽车有限公司",
		"namePinYin": "Leishihong &#40;beijing&#41; Automobile Repair & Service Co., Ltd.",
		"code": "NBJL50",
		"picture": null,
		"city": "",
		"cityName": "",
		"address": "北京市丰台区南四环西路123号旧机动车交易市场G118号",
		"telephone": "+86 10 57986666",
		"rating": 0,
		"comments": 0,
		"hasCentralStock": false,
		"hasLocalStock": false,
		"distance": 0,
		"status": null,
		"latitude": "39.83148",
		"longitude": "116.31214"
	},
	{
		"id": "NBJL20",
		"createTime": null,
		"name": "利星行天竺之星汽车有限公司",
		"namePinYin": "Lixinghang Tianzhu Star Automobile Service Co., Ltd.",
		"code": "NBJL20",
		"picture": null,
		"city": "",
		"cityName": "",
		"address": "北京市顺义区天竺镇府右街3号",
		"telephone": "+86 400 1165678",
		"rating": 0,
		"comments": 0,
		"hasCentralStock": false,
		"hasLocalStock": false,
		"distance": 0,
		"status": null,
		"latitude": "40.062077",
		"longitude": "116.57583"
	},
	{
		"id": "NBJL30",
		"createTime": null,
		"name": "北京之星汽车服务有限公司",
		"namePinYin": "New Beijing Star Automobile Service Co. Ltd.",
		"code": "NBJL30",
		"picture": null,
		"city": "",
		"cityName": "",
		"address": "北京市北京经济技术开发区文化园东路甲6号",
		"telephone": "+86 10 67862828",
		"rating": 0,
		"comments": 0,
		"hasCentralStock": false,
		"hasLocalStock": false,
		"distance": 0,
		"status": null,
		"latitude": "39.81249",
		"longitude": "116.50555"
	}
]
